[
    {
        "name": "4th Street Stairs",
        "description": "Near the Entrada and Ocean bus stop is the 4th Street Stairs. Go up to Adelaide Drive.",
        "length": 0.05,
        "vertical": 31,
        "strava_link": "https://strava.app.link/1osWpBVFHNb",
        "lat": 34.0306970,
        "lon": -118.5127590
    },

    {
        "name": "Across The Greek",
        "description": "Across the Greek, start at the trailhead of Vermont Canyon Road. Go up the trail until you pass a trashcan at the top.",
        "length": 0.11,
        "vertical": 66,
        "strava_link": "https://strava.app.link/7FwNTtGOFNb",
        "lat": 34.1218740,
        "lon": -118.2966790
    },

    {
        "name": "Arbor Hill",
        "description": "Start at the intersection of Arbor St and California Terrace. Go to the top of Arbor and Grand.",
        "length": 0.14,
        "vertical": 89,
        "strava_link": "https://strava.app.link/KEOhCdZqHNb",
        "lat": 34.1398990,
        "lon": -118.1642010
    },


    {
        "name": "Berlin Forest",
        "description": "From the Griffith Parking lot away from the observatory, go up the trail until you see a sign that says 'Berlin Forest'",
        "length": 0.11,
        "vertical": 39,
        "strava_link": "https://strava.app.link/ahKfVQLOFNb",
        "lat": 34.120950,
        "lon": -118.3003600
    },

    {
        "name": "Bench To Observatory",
        "description": "Go down the path near the Griffith observatory entrance for 3 hills. When you make it to the bench, that is the starting point. Go up from the bench to the observatory.",
        "length": 0.18,
        "vertical": 131,
        "strava_link": "https://strava.app.link/gxDndRQOFNb",
        "lat": 34.116270,
        "lon": -118.3004390
    },

    {
        "name": "Bin To Bench",
        "description": "Go down the path near the Griffith observatory entrance for 3 hills. Go down to the bench and then left until you get to a paved road and bin. From here, go up back to the bench. This is part of the Boy Scout Trail",
        "length": 0.17,
        "vertical": 49,
        "strava_link": "https://strava.app.link/73De5lPOFNb",
        "lat": 34.11779150,
        "lon": -118.2989270
    },

    {
        "name": "California Incline",
        "description": "A Santa Monica classic. Start by the sign near the stairs and head up the California Incline.",
        "length": 0.21,
        "vertical": 55,
        "strava_link": "https://strava.app.link/4Pu33hwFHNb",
        "lat": 34.0197510,
        "lon": -118.5056650
    },

    {
        "name": "Culver City Stairs",
        "description": "From the Baldwin Hills Scenic Overlook Trailhead, head to the top! You can go up the steps or up the Hillside Trail.",
        "length": 0.31,
        "vertical": 299,
        "strava_link": "https://strava.app.link/hrarP5EvHNb",
        "lat": 34.020390,
        "lon": -118.3823680
    },

    {
        "name": "Entrada Steps to Mabery",
        "description": "Near the intersection of Entrada and Mesa is a staircase. Go up that to Mabery.",
        "length": 0.05,
        "vertical": 31,
        "strava_link": "https://strava.app.link/bg0SfwPFHNb",
        "lat": 34.0298080,
        "lon": -118.5154050
    },

    {
        "name": "Griffith's Nasty Hill",
        "description": "Off W Observatory road and accross the S-Curve, from the road go up the steep climb To Mt. Hollywood Trail",
        "length": 0.16,
        "vertical": 164,
        "strava_link": "https://strava.app.link/0UaIahKOFNb",
        "lat": 34.1229510,
        "lon": -118.3027710
    },

    {
        "name": "Griffth's S-Curve",
        "description": "On the W trail, start at a tree on a little bridge and head up the S curve towards the road. If you keep going from the road, you'll start the Nasty Hill section.",
        "length": 0.10,
        "vertical": 66,
        "strava_link": "https://strava.app.link/cEfjydIOFNb",
        "lat": 34.1235430,
        "lon": -118.3034120
    },

    {
        "name": "Hollywood Bowl Entrance up the steps to the tree",
        "description": "At the base of the steps by the tunnel, head up the steps until you make it to the tree in front of the store.",
        "length": 0.10,
        "vertical": 32,
        "strava_link": "https://strava.app.link/thblo6eyHNb",
        "lat": 34.1113380,
        "lon": -118.3364270
    },

    {

        "name": "Hollywood Bowl B Parking Lot B1-B7-B1",
        "description": "In the Hollywood Bowl B parking lot, go to either side of B1, head up to B7 and back to B1. It'll be a U shape. You can start from either side of B1 and head to the other side as 1 rep.",
        "length": 0.26,
        "vertical": 62,
        "strava_link": "https://strava.app.link/twEauGgyHNb",
        "lat": 34.1111120,
        "lon": -118.3364270
    },

    {
        "name": "Hollywood Bowl Picnic Area 3",
        "description": "In the Hollywood Bowl A parking lot is a hill that goes up to Picnic Area 3. Go up that hill.",
        "length": 0.05,
        "vertical": 108,
        "strava_link": "https://strava.app.link/twEauGgyHNb",
        "lat": 34.1130180,
        "lon": -118.3379280
    },

    {
        "name": "Hollywood Bowl Walkway to Lot A Upper Terrace",
        "description": "Towards the corner of the Hollywood Bowl A lot is an upper walkway. Go up the walkway to Lot A Upper Terrace.",
        "length": 0.13,
        "vertical": 43,
        "strava_link": "https://strava.app.link/nlIIZamyHNb",
        "lat": 34.1134090,
        "lon": -118.3392650
    },

    {
        "name": "Idaho Steps and Incline",
        "description": "Near the Santa Monica Beach Path and California Incline is a circular base ramp. Go up that. Instead of going up the California Incline, go up the steps on your right and follow the incline to the top. If you back down and get to the start of the California Incline, this is an opportunity to knock out a rep of two locations.",
        "length": 0.21,
        "vertical": 88,
        "strava_link": "https://strava.app.link/SIr7d6CFHNb",
        "lat": 34.0192940,
        "lon": -118.5060710
    },

    {
        "name": "La Loma to Cherry Steps to Top of Sequoia Light Post",
        "description": "Near the intersection of La Loma road and Juniper Dr are two staircases. Go up the steps to cherry Drive. Keep going up the street on Sequioa Drive until you get to the lightpost.",
        "length": 0.21,
        "vertical": 161,
        "strava_link": "https://strava.app.link/GYugSr7qHNb",
        "lat": 34.1331450,
        "lon": -118.1812770
    },

    {
        "name": "La Loma to Evergreen Steps",
        "description": "Near the intersection of La Loma road and Juniper Dr are two staircases. Go up the steps to Evergreen Drive.",
        "length": 0.05,
        "vertical": 39,
        "strava_link": "https://strava.app.link/LzatS79qHNb",
        "lat": 34.1326140,
        "lon": -118.1809090
    },

    {
        "name": "Montana Steps",
        "description": "Near the Santa Monica Beach Path and California Incline is a circular ramp. Go up that. Instead of going up the California Incline, go up the steps on your right and follow the incline to the top. If you back down and get to the start of the California Incline, this is an opportunity to knock out a rep of two locations.",
        "length": 0.12,
        "vertical": 72,
        "strava_link": "https://strava.app.link/4cUBDLLFHNb",
        "lat": 34.0211770,
        "lon": -118.5081590
    },

    {
        "name": "Paramount Stairway",
        "description": "Near the Hollywood Bowl, go up the steps to the top",
        "length": 0.19,
        "vertical": 131,
        "strava_link": "https://strava.app.link/0E5rTppyHNb",
        "lat": 34.1076380,
        "lon": -118.3390160
    },

    {
        "name": "Santa Monica Beach Path to Cannon Steps",
        "description": "Off the Santa Monica Beach Path is a set of steps. Go up it until you see the Cannon. Don't fire the cannon.",
        "length": 0.07,
        "vertical": 31,
        "strava_link": "https://strava.app.link/CKsVpJhFHNb",
        "lat": 34.0125790,
        "lon": -118.4981480
    },

    {
        "name": "Santa Monica Pier Ramp",
        "description": "At the base of the Santa Monica Pier ramp, head up.",
        "length": 0.11,
        "vertical": 31,
        "strava_link": "https://strava.app.link/gYuR39eFHNb",
        "lat": 34.0101190,
        "lon": -118.49640
    },

    {
        "name": "Santa Monica Stairs",
        "description": "At the intersection of Amalfi and Entrada is the Santa Monica Stairs. Go up to Adelaide Drive.",
        "length": 0.11,
        "vertical": 89,
        "strava_link": "https://strava.app.link/yLKtGgYFHNb",
        "lat": 34.0323590,
        "lon": -118.5110690
    },

    {
        "name": "Steps to Arizona and Ocean",
        "description": "Off the Santa Monica Beach Path closer to the freeway is a set of steps. Go up the steps to the top.",
        "length": 0.09,
        "vertical": 35,
        "strava_link": "https://strava.app.link/254sniqFHNb",
        "lat": 34.0149150,
        "lon": -118.500280
    },

    {
        "name": "Secret Stairs of Pasadena (Option A)",
        "description": "Near the intersection of Elmwood Drive and Laurel Bay Drive is a staircase. Go through the Elmwood Secret Stairs until you get to Cherry Drive.",
        "length": 0.20,
        "vertical": 161,
        "strava_link": "https://strava.app.link/CKR6fQ2qHNb",
        "lat": 34.1362540,
        "lon": -118.1833810
    },

    {
        "name": "Secret Stairs of Pasadena (Option B)",
        "description": "This is the reverse of Secret Stairs of Pasadena (Option A). Start at Cherry Drive, go through the Elmwood Secret Stairs until you get to Elmwood Drive.",
        "length": 0.20,
        "vertical": 52,
        "strava_link": "https://strava.app.link/be8WFh5qHNb",
        "lat": 34.1350280,
        "lon": -118.1805790
    },

    {
        "name": "Sign to Bench",
        "description": "Go down the path near the Griffith observatory entrance for 3 hills. Go down to the bench and then right until you see a sign. For this segment, go up until you make it back to the bench.",
        "length": 0.17,
        "vertical": 120,
        "strava_link": "https://strava.app.link/JwqetTNOFNb",
        "lat": 34.117620,
        "lon": -118.3024400
    }

]