[
    {
        "name": "4th Street Stairs",
        "description": "Near the Entrada and Ocean bus stop is the 4th Street Stairs. Go up to Adelaide Drive.",
        "length": 0.04,
        "vertical": 108,
        "strava_link": "https://strava.app.link/1osWpBVFHNb",
        "lat": 34.0306970,
        "lon": -118.5127590
    },

    {
        "name": "Arbor Hill",
        "description": "Start at the intersection of Arbor St and California Terrace. Go to the top of Arbor and Grand.",
        "length": 0.10,
        "vertical": 89,
        "strava_link": "https://strava.app.link/KEOhCdZqHNb",
        "lat": 34.1398990,
        "lon": -118.1642010
    },

    {
        "name": "Baxter Street Stairs",
        "description": "At the intersection of Baxter and Valentine Street, go up to Park Drive at Elysian Park.",
        "length": 0.20,
        "vertical": 190,
        "strava_link": "https://strava.app.link/kFd7uuuIHNb",
        "lat": 34.0886740,
        "lon": -118.2485960
    },

    {
        "name": "Baxter Street",
        "description": "At the intersection of Baxter and North Alvarado, go down and then up to Lemoyne Street. Turn around and head back to where you came. That is one. It's a November Project LAX classic.",
        "length": 0.33,
        "vertical": 174,
        "strava_link": "https://strava.app.link/1uNsJEzIHNb",
        "lat": 34.0915440,
        "lon": -118.2550920
    },


    {
        "name": "California Incline",
        "description": "A Santa Monica classic. Start by the sign near the stairs and head up the California Incline.",
        "length": 0.21,
        "vertical": 56,
        "strava_link": "https://strava.app.link/4Pu33hwFHNb",
        "lat": 34.0197510,
        "lon": -118.5056650
    },

    {
        "name": "Culver City Stairs",
        "description": "From the Baldwin Hills Scenic Overlook Trailhead, head to the top! You can go up the steps or up the Hillside Trail.",
        "length": 0.31,
        "vertical": 289,
        "strava_link": "https://strava.app.link/hrarP5EvHNb",
        "lat": 34.0204390,
        "lon": -118.3823680
    },

    {
        "name": "Duane and Silver Lake to Duane and Apex",
        "description": "At the intersection of Duane and Silver Lake, head to Duane and Apex.",
        "length": 0.12,
        "vertical": 118,
        "strava_link": "https://strava.app.link/lQxRtdIGHNb",
        "lat": 34.0920670,
        "lon": -118.2638830
    },

    {
        "name": "Eldred Street Steps",
        "description": "Start at the intersection of Avenue 50 and Eldred Steet. Go up the steep street and then go up the steps to the top. Congratulations you warrior.",
        "length": 0.28,
        "vertical": 223,
        "strava_link": "https://strava.app.link/TCj1Xv3HHNb",
        "lat": 34.1097630,
        "lon": -118.2057150
    },

    {
        "name": "Griffith Across The Greek",
        "description": "Across the Greek, start at the trailhead of Vermont Canyon Road. Go up the trail until you pass a trashcan at the top.",
        "length": 0.11,
        "vertical": 69,
        "strava_link": "https://strava.app.link/7FwNTtGOFNb",
        "lat": 34.1218740,
        "lon": -118.2966790
    },

    {
        "name": "Griffith Bench To Observatory",
        "description": "Go down the path near the Griffith observatory entrance for 3 hills. When you make it to the bench, that is the starting point. Go up from the bench to the observatory.",
        "length": 0.18,
        "vertical": 105,
        "strava_link": "https://strava.app.link/gxDndRQOFNb",
        "lat": 34.1164270,
        "lon": -118.3004390
    },

    {
        "name": "Griffith Berlin Forest",
        "description": "From the Griffith Parking lot away from the observatory, go up the trail until you see a sign that says 'Berlin Forest'",
        "length": 0.11,
        "vertical": 39,
        "strava_link": "https://strava.app.link/ahKfVQLOFNb",
        "lat": 34.1209530,
        "lon": -118.3003600
    },

    {
        "name": "Griffith Bin To Bench",
        "description": "Go down the path near the Griffith observatory entrance for 3 hills. Go down to the bench and then left until you get to a paved road and bin. From here, go up back to the bench. This is part of the Boy Scout Trail",
        "length": 0.20,
        "vertical": 72,
        "strava_link": "https://strava.app.link/73De5lPOFNb",
        "lat": 34.1179150,
        "lon": -118.2989270
    },
    
    {
        "name": "Griffith Nasty Hill",
        "description": "Off W Observatory road and accross the S-Curve, from the road go up the steep climb To Mt. Hollywood Trail",
        "length": 0.16,
        "vertical": 108,
        "strava_link": "https://strava.app.link/0UaIahKOFNb",
        "lat": 34.1229510,
        "lon": -118.3027710
    },

    {
        "name": "Griffth S-Curve",
        "description": "On the W trail, start at a tree on a little bridge and head up the S curve towards the road. If you keep going from the road, you'll start the Nasty Hill section.",
        "length": 0.09,
        "vertical": 58,
        "strava_link": "https://strava.app.link/cEfjydIOFNb",
        "lat": 34.1235430,
        "lon": -118.3034120
    },

    {
        "name": "Griffith Sign to Bench",
        "description": "Go down the path near the Griffith observatory entrance for 3 hills. Go down to the bench and then right until you see a sign. For this segment, go up until you make it back to the bench.",
        "length": 0.17,
        "vertical": 138,
        "strava_link": "https://strava.app.link/JwqetTNOFNb",
        "lat": 34.1176280,
        "lon": -118.3024400
    },

    {
        "name": "Hidden Stairways of Silver Lake",
        "description": "There are 3 hidden stairways in this spot of Silver Lake. Start at Silver Lake Blvf net to Botanica Restaurant, go up the steps to N Occidental Blvd, turn right. On your left go up the steps past Easterly Tier to Silverwood Tier.",
        "length": 0.10,
        "vertical": 108,
        "strava_link": "https://strava.app.link/Yagr87lIHNb",
        "lat": 34.0883200,
        "lon": -118.2690470
    },

    {

        "name": "Hollywood Bowl B Parking Lot B1-B7-B1",
        "description": "In the Hollywood Bowl B parking lot, go to either side of B1, head up to B7 and back to B1. It'll be a U shape. You can start from either side of B1 and head to the other side as 1 rep.",
        "length": 0.26,
        "vertical": 39,
        "strava_link": "https://strava.app.link/sZj4xnxyRNb",
        "lat": 34.1111120,
        "lon": -118.3364270
    },

    {
        "name": "Hollywood Bowl Entrance to Picnic Area 7",
        "description": "At the entrance to the Hollywood Bowl, instead of going inside the bowl, you'll go up as if you were heading to the top. Keep going up until you see a sign that says Picnic Area 7 on your right. You'll end there.",
        "length": 0.17,
        "vertical": 150,
        "strava_link": "https://strava.app.link/sCel7MUHHNb",
        "lat": 34.1128240,
        "lon": -118.3381600
    },

    {
        "name": "Hollywood Bowl Steps",
        "description": "Inside the Hollywood Bowl, head up the steps. Alternatively, if you go all the way to the other side, you can go up that hill to the top of the Bowl.",
        "length": 0.11,
        "vertical": 200,
        "strava_link": "https://strava.app.link/qxDMTUNHHNb",
        "lat": 34.1124080,
        "lon": -118.3385840
    },

    {
        "name": "Hollywood Bowl Walkway to Lot A Upper Terrace",
        "description": "Towards the corner of the Hollywood Bowl A lot is an upper walkway. Go up the walkway to Lot A Upper Terrace.",
        "length": 0.13,
        "vertical": 52,
        "strava_link": "https://strava.app.link/nlIIZamyHNb",
        "lat": 34.1134090,
        "lon": -118.3392650
    },

    {
        "name": "Idaho Steps and Incline",
        "description": "Near the Santa Monica Beach Path and California Incline is a circular base ramp. Go up that. Instead of going up the California Incline, go up the steps on your right and follow the incline to the top. If you back down and get to the start of the California Incline, this is an opportunity to knock out a rep of two locations.",
        "length": 0.21,
        "vertical": 98,
        "strava_link": "https://strava.app.link/SIr7d6CFHNb",
        "lat": 34.0192940,
        "lon": -118.5060710
    },

    {
        "name": "La Cienega and Santa Monica to Sunset",
        "description": "In Weho, start at North Doheny and Santa Monica Blvd. Go up to Sunset.",
        "length": 0.32,
        "vertical": 164,
        "strava_link": "https://strava.app.link/fFSxmvrmONb",
        "lat": 34.0897580,
        "lon": -118.3761260
    },

    {
        "name": "La Loma to Cherry Steps to Top of Sequoia Light Post",
        "description": "Near the intersection of La Loma road and Juniper Dr are two staircases. Go up the steps to cherry Drive. Keep going up the street on Sequioa Drive until you get to the lightpost.",
        "length": 0.21,
        "vertical": 154,
        "strava_link": "https://strava.app.link/GYugSr7qHNb",
        "lat": 34.1331450,
        "lon": -118.1812770
    },

    {
        "name": "Los Feliz Heights Steps",
        "description": "Near Cromwell and North Berendo Street is a staircase. Go up the staircase. Keep going up a hill on Bonvue Avenue until you see a staircase on your left before Glendower Avenue. Go up the staircase to Bryn Mawr Road. Go up another staircase to Glendower Ave.",
        "length": 0.26,
        "vertical": 269,
        "strava_link": "https://strava.app.link/xs3hDlEHHNb",
        "lat": 34.1123700,
        "lon": -118.2948480
    },

    {
        "name": "Mattachine Steps",
        "description": "Start at the intersection of Cove and Rockford. Go up the hill and up the Mattachine Steps.",
        "length": 0.15,
        "vertical": 118,
        "strava_link": "https://strava.app.link/EFnVmD3FHNb",
        "lat":34.0956540,
        "lon": -118.2618400
    },

    {
        "name": "Micheltorena and Berkeley up to 1923 on your left",
        "description": "Start at the intersection of Micheltorena and Berkeley. Go up the steep street all the way to the top until you see 1923 on your left.",
        "length": 0.40,
        "vertical": 292,
        "strava_link": "https://strava.app.link/Q1SSgI5HHNb",
        "lat":34.0898730,
        "lon": -118.2743150
    },

    {
        "name": "Micheltorena Steps",
        "description": "Start at the intersection of Micheltorena and West Sunset. Go up the steps.",
        "length": 0.10,
        "vertical": 112,
        "strava_link": "https://strava.app.link/MlNjBv7HHNb",
        "lat":34.0873810,
        "lon": -118.2759500
    },

    {
        "name": "Montana Steps",
        "description": "Near the Santa Monica Beach Path and California Incline is a circular ramp. Go up that. Instead of going up the California Incline, go up the steps on your right and follow the incline to the top. If you back down and get to the start of the California Incline, this is an opportunity to knock out a rep of two locations.",
        "length": 0.12,
        "vertical": 102,
        "strava_link": "https://strava.app.link/4cUBDLLFHNb",
        "lat": 34.0211770,
        "lon": -118.5081590
    },

    {
        "name": "Music Box Steps",
        "description": "Near Laurel and Hardy Park is the Music Box steps. Go up those steps to Descanso Drive.",
        "length": 0.05,
        "vertical": 66,
        "strava_link": "https://strava.app.link/pKLZs2IyRNb",
        "lat": 34.0830540,
        "lon": -118.2751610
    },

    {
        "name": "North Doheny and Santa Monica to Sunset",
        "description": "In Weho, start at North Doheny and Santa Monica Blvd. Go up to Sunset.",
        "length": 0.64,
        "vertical": 174,
        "strava_link": "https://strava.app.link/beLRS7nmONb",
        "lat": 34.0813250,
        "lon": -118.3896750
    },

    {
        "name": "Paramount Stairway",
        "description": "Near the Hollywood Bowl, go up the steps to the top",
        "length": 0.07,
        "vertical": 108,
        "strava_link": "https://strava.app.link/0E5rTppyHNb",
        "lat": 34.1076380,
        "lon": -118.3390160
    },

    {
        "name": "Piano Steps",
        "description": "On West Sunset near Micheltorena Steps is a set of Steps that look like a Piano. Go up those steps to Hamilton Way.",
        "length": 0.04,
        "vertical": 49,
        "strava_link": "https://strava.app.link/l9ZtMcaIHNb",
        "lat": 34.0863060,
        "lon": -118.2751290
    },

    {
        "name": "Prospect Stairs",
        "description": "On Prospect Ave is the Prospect Walk. Go up all 3 sets of staircases.",
        "length": 0.11,
        "vertical": 164,
        "strava_link": "https://strava.app.link/6DO7SyHHHNb",
        "lat": 34.1019570,
        "lon": -118.2775570
    },

    {
        "name": "Radio Walk Steps",
        "description": "At the intersection of Deloz Avenue and Prospect Avenue is the Radio walk steps. Go up all the way passed Hollyvista Avenue to Franklin.",
        "length": 0.07,
        "vertical": 118,
        "strava_link": "https://strava.app.link/eLTlMiKHHNb",
        "lat": 34.1031180,
        "lon": -118.2773030
    },

    {
        "name": "San Vicente and Santa Monica to Sunset",
        "description": "In Weho, start at San Vicente and Santa Monica Blvd. Go up to Sunset.",
        "length": 0.39,
        "vertical": 138,
        "strava_link": "https://strava.app.link/ZhqRVxqmONb",
        "lat": 34.0850870,
        "lon": -118.3841020
    },

    {
        "name": "Santa Monica Beach Path to Cannon Steps",
        "description": "Off the Santa Monica Beach Path is a set of steps. Go up it until you see the Cannon. Don't fire the cannon.",
        "length": 0.07,
        "vertical": 49,
        "strava_link": "https://strava.app.link/CKsVpJhFHNb",
        "lat": 34.0125790,
        "lon": -118.4981480
    },

    {
        "name": "Santa Monica Pier Ramp",
        "description": "At the base of the Santa Monica Pier ramp, head up.",
        "length": 0.11,
        "vertical": 39,
        "strava_link": "https://strava.app.link/gYuR39eFHNb",
        "lat": 34.0101150,
        "lon": -118.4964640
    },

    {
        "name": "Santa Monica Stairs",
        "description": "At the intersection of Amalfi and Entrada is the Santa Monica Stairs. Go up to Adelaide Drive.",
        "length": 0.05,
        "vertical": 102,
        "strava_link": "https://strava.app.link/yLKtGgYFHNb",
        "lat": 34.0323590,
        "lon": -118.5110690
    },

    {
        "name": "Secret Stairs of Pasadena",
        "description": "Near the intersection of Elmwood Drive and Laurel Bay Drive is a staircase. Go through the Elmwood Secret Stairs until you get to Cherry Drive.",
        "length": 0.20,
        "vertical": 161,
        "strava_link": "https://strava.app.link/CKR6fQ2qHNb",
        "lat": 34.1362540,
        "lon": -118.1833810
    },

    {
        "name": "Swan Stairway (Parts 1, 2, & 3)",
        "description": "Start at the intersection of Swan and W Silver Lake. Go up all 3 sets of stairs.",
        "length": 0.11,
        "vertical": 157,
        "strava_link": "https://strava.app.link/gtmad8BHHNb",
        "lat": 34.0912530,
        "lon": -118.2678440
    }

]